{"routes": {"Blue": {"stop_ids": ["30172", "30160", "30045", "30146", "30248", "30260", "30108", "30240", "30013", "30198", "30112", "30130", "30116", "30063", "30272", "30096", "30374", "30073", "30154", "30015", "30262", "30085", "30069", "30093", "30158", "30043", "30049", "30180", "30188", "30002", "30035", "30190", "30077"], "name": "Blue Line"}, "Pink": {"stop_ids": ["30113", "30082", "30117", "30028", "30151", "30201", "30086", "30143", "30040", "30161", "30199", "30032", "30295", "30221", "30074", "30050", "30039", "30132", "30166", "30031", "30007", "30141", "30222", "30296", "30033", "30200", "30162", "30041", "30144", "30087", "30202", "30152", "30029", "30118", "30083", "30114"], "name": "Pink Line"}, "G": {"stop_ids": ["30003", "30263", "30119", "30243", "30054", "30135", "30094", "30005", "30291", "30207", "30265", "30032", "30295", "30221", "30074", "30050", "30039", "30132", "30081", "30382", "30214", "30059", "30246", "30210", "30025", "30100", "30184", "30057"], "name": "Green Line"}, "Brn": {"stop_ids": ["30250", "30226", "30168", "30196", "30284", "30019", "30288", "30282", "30278", "30254", "30071", "30258", "30232", "30104", "30236", "30128", "30156", "30138", "30091", "30142", "30008", "30030", "30165", "30131", "30038", "30051", "30075", "30090", "30137", "30155", "30127", "30235", "30103", "30231", "30257", "30070", "30253", "30277", "30281", "30287", "30018", "30283", "30195", "30167", "30225", "30249"], "name": "Brown Line"}, "P": {"stop_ids": ["30204", "30242", "30079", "30102", "30011", "30134", "30053", "30164", "30176", "30106", "30294", "30258", "30232", "30104", "30236", "30128", "30156", "30138", "30091", "30074", "30050", "30039", "30132", "30166", "30031", "30007", "30141", "30090", "30137", "30155", "30127", "30235", "30103", "30231", "30257", "30175", "30163", "30052", "30133", "30010", "30101", "30078", "30241", "30203"], "name": "Purple Line"}, "Y": {"stop_ids": ["30175", "30297", "30026", "30027", "30298", "30176"], "name": "Yellow Line"}, "Org": {"stop_ids": ["30181", "30185", "30219", "30060", "30022", "30205", "30215", "30080", "30166", "30031", "30007", "30141", "30074", "30050", "30039", "30132", "30081", "30216", "30206", "30023", "30061", "30220", "30186", "30182"], "name": "Orange Line"}, "Red": {"stop_ids": ["30088", "30275", "30046", "30191", "30177", "30223", "30237", "30036", "30193", "30269", "30285", "30109", "30211", "30289", "30064", "30279", "30121", "30125", "30233", "30255", "30273", "30016", "30105", "30149", "30229", "30066", "30267", "30169", "30147", "30251", "30020", "30227", "30173"], "name": "Red Line"}}, "agency_name": "CTA", "stops": {"30059": {"county_fips": "031", "name": "Indiana", "tract_fips": "835900", "lon": -87.621371, "state_fips": "17", "lat": 41.821732, "median_income": 24048}, "30186": {"county_fips": "031", "name": "Pulaski-Orange", "tract_fips": "620200", "lon": -87.724493, "state_fips": "17", "lat": 41.799756, "median_income": 44699}, "30185": {"county_fips": "031", "name": "Pulaski-Orange", "tract_fips": "620200", "lon": -87.724493, "state_fips": "17", "lat": 41.799756, "median_income": 44699}, "30184": {"county_fips": "031", "name": "Halsted-Green", "tract_fips": "680900", "lon": -87.644244, "state_fips": "17", "lat": 41.778943, "median_income": 16743}, "30182": {"county_fips": "031", "name": "Midway", "tract_fips": "980100", "lon": -87.737875, "state_fips": "17", "lat": 41.78661, "median_income": null}, "30181": {"county_fips": "031", "name": "Midway", "tract_fips": "980100", "lon": -87.737875, "state_fips": "17", "lat": 41.78661, "median_income": null}, "30229": {"county_fips": "031", "name": "Argyle", "tract_fips": "031200", "lon": -87.65853, "state_fips": "17", "lat": 41.973453, "median_income": 17727}, "30051": {"county_fips": "031", "name": "State/Lake", "tract_fips": "320100", "lon": -87.627835, "state_fips": "17", "lat": 41.88574, "median_income": 97188}, "30227": {"county_fips": "031", "name": "Jarvis", "tract_fips": "010300", "lon": -87.669092, "state_fips": "17", "lat": 42.015876, "median_income": 45224}, "30053": {"county_fips": "031", "name": "Main", "tract_fips": "810000", "lon": -87.679538, "state_fips": "17", "lat": 42.033456, "median_income": 67325}, "30225": {"county_fips": "031", "name": "Kedzie-Brown", "tract_fips": "140701", "lon": -87.708821, "state_fips": "17", "lat": 41.965996, "median_income": 42366}, "30222": {"county_fips": "031", "name": "Clinton-Green", "tract_fips": "280100", "lon": -87.641782, "state_fips": "17", "lat": 41.885678, "median_income": 86875}, "30223": {"county_fips": "031", "name": "Garfield-Red", "tract_fips": "835600", "lon": -87.631157, "state_fips": "17", "lat": 41.79542, "median_income": 19805}, "30057": {"county_fips": "031", "name": "Ashland/63rd", "tract_fips": "671100", "lon": -87.663766, "state_fips": "17", "lat": 41.77886, "median_income": 21750}, "30221": {"county_fips": "031", "name": "Clinton-Green", "tract_fips": "280100", "lon": -87.641782, "state_fips": "17", "lat": 41.885678, "median_income": 86875}, "30119": {"county_fips": "031", "name": "Ridgeland", "tract_fips": "812500", "lon": -87.783661, "state_fips": "17", "lat": 41.887159, "median_income": 65313}, "30180": {"county_fips": "031", "name": "Pulaski-Forest Park", "tract_fips": "260700", "lon": -87.725663, "state_fips": "17", "lat": 41.873797, "median_income": 25813}, "30054": {"county_fips": "031", "name": "Central-Green", "tract_fips": "251400", "lon": -87.76565, "state_fips": "17", "lat": 41.887389, "median_income": 33431}, "30132": {"county_fips": "031", "name": "Adams/Wabash", "tract_fips": "320400", "lon": -87.626037, "state_fips": "17", "lat": 41.879507, "median_income": 78452}, "30226": {"county_fips": "031", "name": "Kedzie-Brown", "tract_fips": "140701", "lon": -87.708821, "state_fips": "17", "lat": 41.965996, "median_income": 42366}, "30130": {"county_fips": "031", "name": "Western-O'Hare", "tract_fips": "222200", "lon": -87.687364, "state_fips": "17", "lat": 41.916157, "median_income": 91563}, "30131": {"county_fips": "031", "name": "Adams/Wabash", "tract_fips": "320400", "lon": -87.626037, "state_fips": "17", "lat": 41.879507, "median_income": 78452}, "30137": {"county_fips": "031", "name": "Chicago-Brown", "tract_fips": "081800", "lon": -87.635924, "state_fips": "17", "lat": 41.89681, "median_income": 108482}, "30134": {"county_fips": "031", "name": "Dempster", "tract_fips": "809400", "lon": -87.681602, "state_fips": "17", "lat": 42.041655, "median_income": 50433}, "30135": {"county_fips": "031", "name": "Laramie", "tract_fips": "251800", "lon": -87.754986, "state_fips": "17", "lat": 41.887163, "median_income": 25875}, "30138": {"county_fips": "031", "name": "Chicago-Brown", "tract_fips": "081800", "lon": -87.635924, "state_fips": "17", "lat": 41.89681, "median_income": 108482}, "30190": {"county_fips": "031", "name": "Harlem-Forest Park", "tract_fips": "816100", "lon": -87.806961, "state_fips": "17", "lat": 41.87349, "median_income": 56055}, "30191": {"county_fips": "031", "name": "69th", "tract_fips": "690300", "lon": -87.625724, "state_fips": "17", "lat": 41.768367, "median_income": 19180}, "30219": {"county_fips": "031", "name": "Kedzie-Orange", "tract_fips": "630300", "lon": -87.704406, "state_fips": "17", "lat": 41.804236, "median_income": 36980}, "30193": {"county_fips": "031", "name": "Cermak-Chinatown", "tract_fips": "841100", "lon": -87.630968, "state_fips": "17", "lat": 41.853206, "median_income": 27866}, "30088": {"county_fips": "031", "name": "95th", "tract_fips": "834000", "lon": -87.624342, "state_fips": "17", "lat": 41.722377, "median_income": 31727}, "30196": {"county_fips": "031", "name": "Rockwell", "tract_fips": "040700", "lon": -87.6941, "state_fips": "17", "lat": 41.966115, "median_income": 56172}, "30198": {"county_fips": "031", "name": "Logan Square", "tract_fips": "220602", "lon": -87.708541, "state_fips": "17", "lat": 41.929728, "median_income": 37312}, "30043": {"county_fips": "031", "name": "Western-Forest Park", "tract_fips": "282700", "lon": -87.688436, "state_fips": "17", "lat": 41.875478, "median_income": 37409}, "30211": {"county_fips": "031", "name": "Monroe-Red", "tract_fips": "320400", "lon": -87.627696, "state_fips": "17", "lat": 41.880745, "median_income": 78452}, "30210": {"county_fips": "031", "name": "47th-Green", "tract_fips": "381400", "lon": -87.618826, "state_fips": "17", "lat": 41.809209, "median_income": 45966}, "30046": {"county_fips": "031", "name": "79th", "tract_fips": "842400", "lon": -87.625112, "state_fips": "17", "lat": 41.750419, "median_income": 35426}, "30216": {"county_fips": "031", "name": "Halsted-Orange", "tract_fips": "840200", "lon": -87.648088, "state_fips": "17", "lat": 41.84678, "median_income": 50451}, "30215": {"county_fips": "031", "name": "Halsted-Orange", "tract_fips": "840200", "lon": -87.648088, "state_fips": "17", "lat": 41.84678, "median_income": 50451}, "30214": {"county_fips": "031", "name": "35-Bronzeville-IIT", "tract_fips": "842000", "lon": -87.625826, "state_fips": "17", "lat": 41.831677, "median_income": 77725}, "30086": {"county_fips": "031", "name": "California-Cermak", "tract_fips": "840700", "lon": -87.694774, "state_fips": "17", "lat": 41.854109, "median_income": 28135}, "30291": {"county_fips": "031", "name": "Conservatory", "tract_fips": "836800", "lon": -87.716523, "state_fips": "17", "lat": 41.884904, "median_income": 19375}, "30297": {"county_fips": "031", "name": "Oakton-Skokie", "tract_fips": "807700", "lon": -87.74722084, "state_fips": "17", "lat": 42.02624348, "median_income": 60617}, "30296": {"county_fips": "031", "name": "Morgan", "tract_fips": "833000", "lon": -87.65212993, "state_fips": "17", "lat": 41.88557676, "median_income": 100446}, "30295": {"county_fips": "031", "name": "Morgan", "tract_fips": "833000", "lon": -87.65212993, "state_fips": "17", "lat": 41.88557676, "median_income": 100446}, "30294": {"county_fips": "031", "name": "Sheridan", "tract_fips": "832100", "lon": -87.654929, "state_fips": "17", "lat": 41.953775, "median_income": 66750}, "30220": {"county_fips": "031", "name": "Kedzie-Orange", "tract_fips": "630300", "lon": -87.704406, "state_fips": "17", "lat": 41.804236, "median_income": 36980}, "30298": {"county_fips": "031", "name": "Oakton-Skokie", "tract_fips": "807700", "lon": -87.74722084, "state_fips": "17", "lat": 42.02624348, "median_income": 60617}, "30085": {"county_fips": "031", "name": "Clinton-Blue", "tract_fips": "841900", "lon": -87.640984, "state_fips": "17", "lat": 41.875539, "median_income": 88958}, "30158": {"county_fips": "031", "name": "Illinois Medical District", "tract_fips": "838100", "lon": -87.673932, "state_fips": "17", "lat": 41.875706, "median_income": 27133}, "30236": {"county_fips": "031", "name": "Fullerton", "tract_fips": "071100", "lon": -87.652866, "state_fips": "17", "lat": 41.925051, "median_income": 103315}, "30083": {"county_fips": "031", "name": "Cicero-Cermak", "tract_fips": "813702", "lon": -87.745336, "state_fips": "17", "lat": 41.85182, "median_income": 58188}, "30080": {"county_fips": "031", "name": "Roosevelt (Elevated)", "tract_fips": "330100", "lon": -87.62659, "state_fips": "17", "lat": 41.867405, "median_income": 75227}, "30109": {"county_fips": "031", "name": "Jackson-Red", "tract_fips": "320400", "lon": -87.627596, "state_fips": "17", "lat": 41.878153, "median_income": 78452}, "30108": {"county_fips": "031", "name": "Irving Park-Blue", "tract_fips": "161000", "lon": -87.729229, "state_fips": "17", "lat": 41.952925, "median_income": 56286}, "30106": {"county_fips": "031", "name": "Wilson", "tract_fips": "830700", "lon": -87.657588, "state_fips": "17", "lat": 41.964273, "median_income": 41891}, "30105": {"county_fips": "031", "name": "Wilson", "tract_fips": "830700", "lon": -87.657588, "state_fips": "17", "lat": 41.964273, "median_income": 41891}, "30081": {"county_fips": "031", "name": "Roosevelt (Elevated)", "tract_fips": "330100", "lon": -87.62659, "state_fips": "17", "lat": 41.867405, "median_income": 75227}, "30103": {"county_fips": "031", "name": "Diversey", "tract_fips": "063000", "lon": -87.653131, "state_fips": "17", "lat": 41.932732, "median_income": 66875}, "30102": {"county_fips": "031", "name": "Foster", "tract_fips": "809300", "lon": -87.68356, "state_fips": "17", "lat": 42.05416, "median_income": 24883}, "30101": {"county_fips": "031", "name": "Foster", "tract_fips": "809300", "lon": -87.68356, "state_fips": "17", "lat": 42.05416, "median_income": 24883}, "30100": {"county_fips": "031", "name": "Garfield-Green", "tract_fips": "400300", "lon": -87.618327, "state_fips": "17", "lat": 41.795172, "median_income": 32950}, "30169": {"county_fips": "031", "name": "Thorndale", "tract_fips": "030101", "lon": -87.659076, "state_fips": "17", "lat": 41.990259, "median_income": 37434}, "30168": {"county_fips": "031", "name": "Francisco", "tract_fips": "140800", "lon": -87.701644, "state_fips": "17", "lat": 41.966046, "median_income": 62375}, "30165": {"county_fips": "031", "name": "Harold Washington Library", "tract_fips": "839100", "lon": -87.628196, "state_fips": "17", "lat": 41.876862, "median_income": 75457}, "30164": {"county_fips": "031", "name": "South Boulevard", "tract_fips": "810000", "lon": -87.678329, "state_fips": "17", "lat": 42.027612, "median_income": 67325}, "30167": {"county_fips": "031", "name": "Francisco", "tract_fips": "140800", "lon": -87.701644, "state_fips": "17", "lat": 41.966046, "median_income": 62375}, "30166": {"county_fips": "031", "name": "Harold Washington Library", "tract_fips": "839100", "lon": -87.628196, "state_fips": "17", "lat": 41.876862, "median_income": 75457}, "30161": {"county_fips": "031", "name": "18th", "tract_fips": "310800", "lon": -87.669147, "state_fips": "17", "lat": 41.857908, "median_income": 37446}, "30160": {"county_fips": "031", "name": "Rosemont", "tract_fips": "770700", "lon": -87.859388, "state_fips": "17", "lat": 41.983507, "median_income": 34727}, "30163": {"county_fips": "031", "name": "South Boulevard", "tract_fips": "810000", "lon": -87.678329, "state_fips": "17", "lat": 42.027612, "median_income": 67325}, "30162": {"county_fips": "031", "name": "18th", "tract_fips": "310800", "lon": -87.669147, "state_fips": "17", "lat": 41.857908, "median_income": 37446}, "30288": {"county_fips": "031", "name": "Montrose-Brown", "tract_fips": "830800", "lon": -87.675047, "state_fips": "17", "lat": 41.961756, "median_income": 51858}, "30289": {"county_fips": "031", "name": "Lake", "tract_fips": "320100", "lon": -87.627813, "state_fips": "17", "lat": 41.884809, "median_income": 97188}, "30284": {"county_fips": "031", "name": "Western-Brown", "tract_fips": "040600", "lon": -87.688502, "state_fips": "17", "lat": 41.966163, "median_income": 64402}, "30285": {"county_fips": "031", "name": "Harrison", "tract_fips": "320600", "lon": -87.627479, "state_fips": "17", "lat": 41.874039, "median_income": 76857}, "30287": {"county_fips": "031", "name": "Montrose-Brown", "tract_fips": "830800", "lon": -87.675047, "state_fips": "17", "lat": 41.961756, "median_income": 51858}, "30281": {"county_fips": "031", "name": "Irving Park-Brown", "tract_fips": "050100", "lon": -87.674868, "state_fips": "17", "lat": 41.954521, "median_income": 70772}, "30282": {"county_fips": "031", "name": "Irving Park-Brown", "tract_fips": "050100", "lon": -87.674868, "state_fips": "17", "lat": 41.954521, "median_income": 70772}, "30283": {"county_fips": "031", "name": "Western-Brown", "tract_fips": "040600", "lon": -87.688502, "state_fips": "17", "lat": 41.966163, "median_income": 64402}, "30118": {"county_fips": "031", "name": "Kostner", "tract_fips": "292500", "lon": -87.733258, "state_fips": "17", "lat": 41.853751, "median_income": 32500}, "30087": {"county_fips": "031", "name": "California-Cermak", "tract_fips": "840700", "lon": -87.694774, "state_fips": "17", "lat": 41.854109, "median_income": 28135}, "30112": {"county_fips": "031", "name": "California-O'Hare", "tract_fips": "221400", "lon": -87.69689, "state_fips": "17", "lat": 41.921939, "median_income": 39625}, "30113": {"county_fips": "031", "name": "54th/Cermak", "tract_fips": "813701", "lon": -87.75669201, "state_fips": "17", "lat": 41.85177331, "median_income": 43052}, "30114": {"county_fips": "031", "name": "54th/Cermak", "tract_fips": "813701", "lon": -87.75669201, "state_fips": "17", "lat": 41.85177331, "median_income": 43052}, "30026": {"county_fips": "031", "name": "Dempster-Skokie", "tract_fips": "807300", "lon": -87.751919, "state_fips": "17", "lat": 42.038951, "median_income": 55507}, "30116": {"county_fips": "031", "name": "Damen-O'Hare", "tract_fips": "241400", "lon": -87.677437, "state_fips": "17", "lat": 41.909744, "median_income": 80928}, "30117": {"county_fips": "031", "name": "Kostner", "tract_fips": "292500", "lon": -87.733258, "state_fips": "17", "lat": 41.853751, "median_income": 32500}, "30027": {"county_fips": "031", "name": "Dempster-Skokie", "tract_fips": "807300", "lon": -87.751919, "state_fips": "17", "lat": 42.038951, "median_income": 55507}, "30176": {"county_fips": "031", "name": "Howard", "tract_fips": "010202", "lon": -87.672892, "state_fips": "17", "lat": 42.019063, "median_income": 35724}, "30177": {"county_fips": "031", "name": "63rd", "tract_fips": "834600", "lon": -87.630952, "state_fips": "17", "lat": 41.780536, "median_income": 23494}, "30175": {"county_fips": "031", "name": "Howard", "tract_fips": "010202", "lon": -87.672892, "state_fips": "17", "lat": 42.019063, "median_income": 35724}, "30172": {"county_fips": "031", "name": "O'Hare", "tract_fips": "980000", "lon": -87.90422307, "state_fips": "17", "lat": 41.97766526, "median_income": null}, "30173": {"county_fips": "031", "name": "Howard", "tract_fips": "010202", "lon": -87.672892, "state_fips": "17", "lat": 42.019063, "median_income": 35724}, "30022": {"county_fips": "031", "name": "35th/Archer", "tract_fips": "590500", "lon": -87.680622, "state_fips": "17", "lat": 41.829353, "median_income": 52344}, "30063": {"county_fips": "031", "name": "Division", "tract_fips": "242000", "lon": -87.666496, "state_fips": "17", "lat": 41.903355, "median_income": 43606}, "30232": {"county_fips": "031", "name": "Wellington", "tract_fips": "063000", "lon": -87.653266, "state_fips": "17", "lat": 41.936033, "median_income": 66875}, "30104": {"county_fips": "031", "name": "Diversey", "tract_fips": "063000", "lon": -87.653131, "state_fips": "17", "lat": 41.932732, "median_income": 66875}, "30269": {"county_fips": "031", "name": "Roosevelt (Subway)", "tract_fips": "330100", "lon": -87.627402, "state_fips": "17", "lat": 41.867368, "median_income": 75227}, "30147": {"county_fips": "031", "name": "Granville", "tract_fips": "030102", "lon": -87.659202, "state_fips": "17", "lat": 41.993664, "median_income": 30794}, "30077": {"county_fips": "031", "name": "Forest Park", "tract_fips": "816000", "lon": -87.817318, "state_fips": "17", "lat": 41.874257, "median_income": 51509}, "30205": {"county_fips": "031", "name": "Ashland-Orange", "tract_fips": "843200", "lon": -87.665317, "state_fips": "17", "lat": 41.839234, "median_income": 40133}, "30075": {"county_fips": "031", "name": "Clark/Lake (Elevated)", "tract_fips": "839100", "lon": -87.630886, "state_fips": "17", "lat": 41.885737, "median_income": 75457}, "30074": {"county_fips": "031", "name": "Clark/Lake (Elevated)", "tract_fips": "839100", "lon": -87.630886, "state_fips": "17", "lat": 41.885737, "median_income": 75457}, "30073": {"county_fips": "031", "name": "Washington-Blue", "tract_fips": "839100", "lon": -87.62944, "state_fips": "17", "lat": 41.883164, "median_income": 75457}, "30201": {"county_fips": "031", "name": "Kedzie-Cermak", "tract_fips": "841600", "lon": -87.705408, "state_fips": "17", "lat": 41.853964, "median_income": 31810}, "30071": {"county_fips": "031", "name": "Southport", "tract_fips": "061500", "lon": -87.663619, "state_fips": "17", "lat": 41.943744, "median_income": 87679}, "30203": {"county_fips": "031", "name": "Linden", "tract_fips": "801300", "lon": -87.69073, "state_fips": "17", "lat": 42.073153, "median_income": 101630}, "30188": {"county_fips": "031", "name": "Cicero-Forest Park", "tract_fips": "831400", "lon": -87.745154, "state_fips": "17", "lat": 41.871574, "median_income": 23204}, "30079": {"county_fips": "031", "name": "Noyes", "tract_fips": "809300", "lon": -87.683337, "state_fips": "17", "lat": 42.058282, "median_income": 24883}, "30078": {"county_fips": "031", "name": "Noyes", "tract_fips": "809300", "lon": -87.683337, "state_fips": "17", "lat": 42.058282, "median_income": 24883}, "30015": {"county_fips": "031", "name": "Jackson-Blue", "tract_fips": "839100", "lon": -87.629296, "state_fips": "17", "lat": 41.878183, "median_income": 75457}, "30231": {"county_fips": "031", "name": "Wellington", "tract_fips": "063000", "lon": -87.653266, "state_fips": "17", "lat": 41.936033, "median_income": 66875}, "30149": {"county_fips": "031", "name": "Lawrence", "tract_fips": "031200", "lon": -87.658493, "state_fips": "17", "lat": 41.969139, "median_income": 17727}, "30016": {"county_fips": "031", "name": "Sheridan", "tract_fips": "832100", "lon": -87.654929, "state_fips": "17", "lat": 41.953775, "median_income": 66750}, "30011": {"county_fips": "031", "name": "Davis", "tract_fips": "809400", "lon": -87.683543, "state_fips": "17", "lat": 42.04771, "median_income": 50433}, "30010": {"county_fips": "031", "name": "Davis", "tract_fips": "809400", "lon": -87.683543, "state_fips": "17", "lat": 42.04771, "median_income": 50433}, "30013": {"county_fips": "031", "name": "Belmont-Blue", "tract_fips": "210601", "lon": -87.712359, "state_fips": "17", "lat": 41.938132, "median_income": 42238}, "30143": {"county_fips": "031", "name": "Western-Cermak", "tract_fips": "841200", "lon": -87.685129, "state_fips": "17", "lat": 41.854225, "median_income": 35478}, "30142": {"county_fips": "031", "name": "Washington/Wells", "tract_fips": "839100", "lon": -87.63378, "state_fips": "17", "lat": 41.882695, "median_income": 75457}, "30141": {"county_fips": "031", "name": "Washington/Wells", "tract_fips": "839100", "lon": -87.63378, "state_fips": "17", "lat": 41.882695, "median_income": 75457}, "30082": {"county_fips": "031", "name": "Cicero-Cermak", "tract_fips": "813702", "lon": -87.745336, "state_fips": "17", "lat": 41.85182, "median_income": 58188}, "30019": {"county_fips": "031", "name": "Damen-Brown", "tract_fips": "830800", "lon": -87.678639, "state_fips": "17", "lat": 41.966286, "median_income": 51858}, "30018": {"county_fips": "031", "name": "Damen-Brown", "tract_fips": "830800", "lon": -87.678639, "state_fips": "17", "lat": 41.966286, "median_income": 51858}, "30144": {"county_fips": "031", "name": "Western-Cermak", "tract_fips": "841200", "lon": -87.685129, "state_fips": "17", "lat": 41.854225, "median_income": 35478}, "30121": {"county_fips": "031", "name": "Clark/Division", "tract_fips": "080202", "lon": -87.631412, "state_fips": "17", "lat": 41.90392, "median_income": 83382}, "30382": {"county_fips": "031", "name": "Cermak-McCormick Place", "tract_fips": "330100", "lon": -87.626402, "state_fips": "17", "lat": 41.853115, "median_income": 75227}, "30133": {"county_fips": "031", "name": "Dempster", "tract_fips": "809400", "lon": -87.681602, "state_fips": "17", "lat": 42.041655, "median_income": 50433}, "30060": {"county_fips": "031", "name": "Western-Orange", "tract_fips": "630100", "lon": -87.684019, "state_fips": "17", "lat": 41.804546, "median_income": 30938}, "30061": {"county_fips": "031", "name": "Western-Orange", "tract_fips": "630100", "lon": -87.684019, "state_fips": "17", "lat": 41.804546, "median_income": 30938}, "30273": {"county_fips": "031", "name": "Addison-Red", "tract_fips": "061000", "lon": -87.653626, "state_fips": "17", "lat": 41.947428, "median_income": 90602}, "30272": {"county_fips": "031", "name": "Chicago-Blue", "tract_fips": "243500", "lon": -87.655214, "state_fips": "17", "lat": 41.896075, "median_income": 93048}, "30275": {"county_fips": "031", "name": "87th", "tract_fips": "842400", "lon": -87.624717, "state_fips": "17", "lat": 41.735372, "median_income": 35426}, "30146": {"county_fips": "031", "name": "Harlem-O'Hare", "tract_fips": "100500", "lon": -87.8089, "state_fips": "17", "lat": 41.98227, "median_income": 73288}, "30066": {"county_fips": "031", "name": "Berwyn", "tract_fips": "030703", "lon": -87.658668, "state_fips": "17", "lat": 41.977984, "median_income": 28333}, "30279": {"county_fips": "031", "name": "Chicago-Red", "tract_fips": "081500", "lon": -87.628176, "state_fips": "17", "lat": 41.896671, "median_income": 82591}, "30069": {"county_fips": "031", "name": "UIC-Halsted", "tract_fips": "841900", "lon": -87.649707, "state_fips": "17", "lat": 41.875474, "median_income": 88958}, "30374": {"county_fips": "031", "name": "Clark/Lake (Subway)", "tract_fips": "839100", "lon": -87.630886, "state_fips": "17", "lat": 41.885737, "median_income": 75457}, "30007": {"county_fips": "031", "name": "Quincy/Wells", "tract_fips": "839100", "lon": -87.63374, "state_fips": "17", "lat": 41.878723, "median_income": 75457}, "30005": {"county_fips": "031", "name": "Pulaski-Green", "tract_fips": "260100", "lon": -87.725404, "state_fips": "17", "lat": 41.885412, "median_income": 11464}, "30002": {"county_fips": "031", "name": "Austin-Blue", "tract_fips": "813100", "lon": -87.776812, "state_fips": "17", "lat": 41.870851, "median_income": 64474}, "30277": {"county_fips": "031", "name": "Addison-Brown", "tract_fips": "050600", "lon": -87.674642, "state_fips": "17", "lat": 41.947028, "median_income": 80060}, "30008": {"county_fips": "031", "name": "Quincy/Wells", "tract_fips": "839100", "lon": -87.63374, "state_fips": "17", "lat": 41.878723, "median_income": 75457}, "30248": {"county_fips": "031", "name": "Jefferson Park", "tract_fips": "110502", "lon": -87.760892, "state_fips": "17", "lat": 41.970634, "median_income": 51571}, "30278": {"county_fips": "031", "name": "Addison-Brown", "tract_fips": "050600", "lon": -87.674642, "state_fips": "17", "lat": 41.947028, "median_income": 80060}, "30195": {"county_fips": "031", "name": "Rockwell", "tract_fips": "040700", "lon": -87.6941, "state_fips": "17", "lat": 41.966115, "median_income": 56172}, "30262": {"county_fips": "031", "name": "LaSalle", "tract_fips": "839100", "lon": -87.631722, "state_fips": "17", "lat": 41.875568, "median_income": 75457}, "30263": {"county_fips": "031", "name": "Oak Park-Green", "tract_fips": "812301", "lon": -87.793783, "state_fips": "17", "lat": 41.886988, "median_income": 56667}, "30260": {"county_fips": "031", "name": "Montrose-Blue", "tract_fips": "160100", "lon": -87.743574, "state_fips": "17", "lat": 41.961539, "median_income": 53107}, "30267": {"county_fips": "031", "name": "Bryn Mawr", "tract_fips": "030701", "lon": -87.65884, "state_fips": "17", "lat": 41.983504, "median_income": 40587}, "30265": {"county_fips": "031", "name": "California-Green", "tract_fips": "837100", "lon": -87.696234, "state_fips": "17", "lat": 41.88422, "median_income": 27945}, "30094": {"county_fips": "031", "name": "Cicero-Green", "tract_fips": "251800", "lon": -87.744698, "state_fips": "17", "lat": 41.886519, "median_income": 25875}, "30202": {"county_fips": "031", "name": "Kedzie-Cermak", "tract_fips": "841600", "lon": -87.705408, "state_fips": "17", "lat": 41.853964, "median_income": 31810}, "30096": {"county_fips": "031", "name": "Grand-Blue", "tract_fips": "842300", "lon": -87.647578, "state_fips": "17", "lat": 41.891189, "median_income": 86813}, "30091": {"county_fips": "031", "name": "Merchandise Mart", "tract_fips": "081700", "lon": -87.633924, "state_fips": "17", "lat": 41.888969, "median_income": 86711}, "30090": {"county_fips": "031", "name": "Merchandise Mart", "tract_fips": "081700", "lon": -87.633924, "state_fips": "17", "lat": 41.888969, "median_income": 86711}, "30093": {"county_fips": "031", "name": "Racine", "tract_fips": "832900", "lon": -87.659458, "state_fips": "17", "lat": 41.87592, "median_income": 42663}, "30033": {"county_fips": "031", "name": "Ashland-Lake", "tract_fips": "280400", "lon": -87.666969, "state_fips": "17", "lat": 41.885269, "median_income": 51406}, "30032": {"county_fips": "031", "name": "Ashland-Lake", "tract_fips": "280400", "lon": -87.666969, "state_fips": "17", "lat": 41.885269, "median_income": 51406}, "30031": {"county_fips": "031", "name": "LaSalle/Van Buren", "tract_fips": "839100", "lon": -87.631739, "state_fips": "17", "lat": 41.8768, "median_income": 75457}, "30030": {"county_fips": "031", "name": "LaSalle/Van Buren", "tract_fips": "839100", "lon": -87.631739, "state_fips": "17", "lat": 41.8768, "median_income": 75457}, "30036": {"county_fips": "031", "name": "Sox-35th", "tract_fips": "340500", "lon": -87.630636, "state_fips": "17", "lat": 41.831191, "median_income": 27153}, "30035": {"county_fips": "031", "name": "Oak Park-Blue", "tract_fips": "813200", "lon": -87.791602, "state_fips": "17", "lat": 41.872108, "median_income": 90201}, "30039": {"county_fips": "031", "name": "Randolph/Wabash", "tract_fips": "320100", "lon": -87.626149, "state_fips": "17", "lat": 41.884431, "median_income": 97188}, "30038": {"county_fips": "031", "name": "Randolph/Wabash", "tract_fips": "320100", "lon": -87.626149, "state_fips": "17", "lat": 41.884431, "median_income": 97188}, "30049": {"county_fips": "031", "name": "Kedzie-Homan", "tract_fips": "271300", "lon": -87.70604, "state_fips": "17", "lat": 41.874341, "median_income": 18538}, "30003": {"county_fips": "031", "name": "Harlem-Green", "tract_fips": "812301", "lon": -87.803176, "state_fips": "17", "lat": 41.886848, "median_income": 56667}, "30204": {"county_fips": "031", "name": "Linden", "tract_fips": "801300", "lon": -87.69073, "state_fips": "17", "lat": 42.073153, "median_income": 101630}, "30064": {"county_fips": "031", "name": "Grand-Red", "tract_fips": "081500", "lon": -87.628021, "state_fips": "17", "lat": 41.891665, "median_income": 82591}, "30206": {"county_fips": "031", "name": "Ashland-Orange", "tract_fips": "843200", "lon": -87.665317, "state_fips": "17", "lat": 41.839234, "median_income": 40133}, "30154": {"county_fips": "031", "name": "Monroe-Blue", "tract_fips": "839100", "lon": -87.629378, "state_fips": "17", "lat": 41.880703, "median_income": 75457}, "30155": {"county_fips": "031", "name": "Sedgwick", "tract_fips": "080400", "lon": -87.639302, "state_fips": "17", "lat": 41.910409, "median_income": 18023}, "30156": {"county_fips": "031", "name": "Sedgwick", "tract_fips": "080400", "lon": -87.639302, "state_fips": "17", "lat": 41.910409, "median_income": 18023}, "30207": {"county_fips": "031", "name": "Kedzie-Green", "tract_fips": "837100", "lon": -87.706155, "state_fips": "17", "lat": 41.884321, "median_income": 27945}, "30050": {"county_fips": "031", "name": "State/Lake", "tract_fips": "320100", "lon": -87.627835, "state_fips": "17", "lat": 41.88574, "median_income": 97188}, "30151": {"county_fips": "031", "name": "Central Park", "tract_fips": "841400", "lon": -87.714842, "state_fips": "17", "lat": 41.853839, "median_income": 30599}, "30152": {"county_fips": "031", "name": "Central Park", "tract_fips": "841400", "lon": -87.714842, "state_fips": "17", "lat": 41.853839, "median_income": 30599}, "30258": {"county_fips": "031", "name": "Belmont", "tract_fips": "063000", "lon": -87.65338, "state_fips": "17", "lat": 41.939751, "median_income": 66875}, "30257": {"county_fips": "031", "name": "Belmont", "tract_fips": "063000", "lon": -87.65338, "state_fips": "17", "lat": 41.939751, "median_income": 66875}, "30200": {"county_fips": "031", "name": "Polk", "tract_fips": "838200", "lon": -87.66953, "state_fips": "17", "lat": 41.871551, "median_income": 57955}, "30255": {"county_fips": "031", "name": "Belmont", "tract_fips": "063000", "lon": -87.65338, "state_fips": "17", "lat": 41.939751, "median_income": 66875}, "30254": {"county_fips": "031", "name": "Paulina", "tract_fips": "831900", "lon": -87.670907, "state_fips": "17", "lat": 41.943623, "median_income": 103553}, "30253": {"county_fips": "031", "name": "Paulina", "tract_fips": "831900", "lon": -87.670907, "state_fips": "17", "lat": 41.943623, "median_income": 103553}, "30040": {"county_fips": "031", "name": "Damen-Cermak", "tract_fips": "310900", "lon": -87.675975, "state_fips": "17", "lat": 41.854517, "median_income": 32813}, "30251": {"county_fips": "031", "name": "Loyola", "tract_fips": "010503", "lon": -87.661061, "state_fips": "17", "lat": 42.001073, "median_income": 18250}, "30250": {"county_fips": "031", "name": "Kimball", "tract_fips": "140701", "lon": -87.713065, "state_fips": "17", "lat": 41.967901, "median_income": 42366}, "30041": {"county_fips": "031", "name": "Damen-Cermak", "tract_fips": "310900", "lon": -87.675975, "state_fips": "17", "lat": 41.854517, "median_income": 32813}, "30028": {"county_fips": "031", "name": "Pulaski-Cermak", "tract_fips": "292400", "lon": -87.724311, "state_fips": "17", "lat": 41.853732, "median_income": 23158}, "30029": {"county_fips": "031", "name": "Pulaski-Cermak", "tract_fips": "292400", "lon": -87.724311, "state_fips": "17", "lat": 41.853732, "median_income": 23158}, "30235": {"county_fips": "031", "name": "Fullerton", "tract_fips": "071100", "lon": -87.652866, "state_fips": "17", "lat": 41.925051, "median_income": 103315}, "30025": {"county_fips": "031", "name": "51st", "tract_fips": "381800", "lon": -87.618487, "state_fips": "17", "lat": 41.80209, "median_income": 19389}, "30237": {"county_fips": "031", "name": "47th-Red", "tract_fips": "835500", "lon": -87.63094, "state_fips": "17", "lat": 41.810318, "median_income": 13962}, "30070": {"county_fips": "031", "name": "Southport", "tract_fips": "061500", "lon": -87.663619, "state_fips": "17", "lat": 41.943744, "median_income": 87679}, "30020": {"county_fips": "031", "name": "Morse", "tract_fips": "010600", "lon": -87.665909, "state_fips": "17", "lat": 42.008362, "median_income": 47610}, "30233": {"county_fips": "031", "name": "Fullerton", "tract_fips": "071100", "lon": -87.652866, "state_fips": "17", "lat": 41.925051, "median_income": 103315}, "30023": {"county_fips": "031", "name": "35th/Archer", "tract_fips": "590500", "lon": -87.680622, "state_fips": "17", "lat": 41.829353, "median_income": 52344}, "30199": {"county_fips": "031", "name": "Polk", "tract_fips": "838200", "lon": -87.66953, "state_fips": "17", "lat": 41.871551, "median_income": 57955}, "30128": {"county_fips": "031", "name": "Armitage", "tract_fips": "071100", "lon": -87.652644, "state_fips": "17", "lat": 41.918217, "median_income": 103315}, "30045": {"county_fips": "031", "name": "Cumberland", "tract_fips": "760801", "lon": -87.838028, "state_fips": "17", "lat": 41.984246, "median_income": 54732}, "30052": {"county_fips": "031", "name": "Main", "tract_fips": "810000", "lon": -87.679538, "state_fips": "17", "lat": 42.033456, "median_income": 67325}, "30249": {"county_fips": "031", "name": "Kimball", "tract_fips": "140701", "lon": -87.713065, "state_fips": "17", "lat": 41.967901, "median_income": 42366}, "30125": {"county_fips": "031", "name": "North/Clybourn", "tract_fips": "842200", "lon": -87.649177, "state_fips": "17", "lat": 41.910655, "median_income": 46548}, "30127": {"county_fips": "031", "name": "Armitage", "tract_fips": "071100", "lon": -87.652644, "state_fips": "17", "lat": 41.918217, "median_income": 103315}, "30240": {"county_fips": "031", "name": "Addison-Blue", "tract_fips": "160900", "lon": -87.71906, "state_fips": "17", "lat": 41.94738, "median_income": 61563}, "30241": {"county_fips": "031", "name": "Central-Purple", "tract_fips": "809300", "lon": -87.685617, "state_fips": "17", "lat": 42.063987, "median_income": 24883}, "30242": {"county_fips": "031", "name": "Central-Purple", "tract_fips": "809300", "lon": -87.685617, "state_fips": "17", "lat": 42.063987, "median_income": 24883}, "30243": {"county_fips": "031", "name": "Austin-Green", "tract_fips": "251400", "lon": -87.774135, "state_fips": "17", "lat": 41.887293, "median_income": 33431}, "30246": {"county_fips": "031", "name": "43rd", "tract_fips": "835800", "lon": -87.619021, "state_fips": "17", "lat": 41.816462, "median_income": 51964}}}